Station ID,Station Name,Latitude,Longitude
1,Mouth,38.450056,-123.126883
2,Penny Island,38.450000,-123.118519
3,Patty's Rock,38.439431,-123.111656
4,Bridge haven,38.434181,-123.106194
5,Willow Creek,38.437090,-123.097855
6,Flats,38.441228,-123.098249
7,Sheephouse Creek,38.448496,-123.095716
8,Osprey Rookery,38.444066,-123.085145
9,Heron Rookery,38.440674,-123.074972
10,Freezeout Island,38.446907,-123.060572
11,Freezeout Creek,38.448858,-123.052847
12,Moscow Bridge,38.453672,-123.049217
